[
  {
    "uid": "property-1-1",
    "tenant_uid": "tenant-1",
    "category": "house",
    "title": "Cozy House in Jakarta",
    "description": "A beautiful cozy house perfect for families.",
    "address": "123 Main St, Jakarta",
    "city": "Jakarta",
    "country": "Indonesia",
    "postal_code": "10110",
    "latitude": -6.2088,
    "longitude": 106.8456,
    "place_id": "ChIJnUvjR6Iz0S0RVGHR8vjF8FA",
    "map_url": "https://maps.google.com/?q=-6.2088,106.8456",
    "amenities": ["WiFi", "Parking", "Kitchen"],
    "rules": ["No smoking", "No pets"],
    "base_price": 150000,
    "status": "active"
  },
  {
    "uid": "property-1-2",
    "tenant_uid": "tenant-1",
    "category": "apartment",
    "title": "Modern Apartment Downtown",
    "description": "Stylish apartment in the heart of the city.",
    "address": "456 Elm St, Jakarta",
    "city": "Jakarta",
    "country": "Indonesia",
    "postal_code": "10120",
    "latitude": -6.2146,
    "longitude": 106.8451,
    "place_id": "ChIJnUvjR6Iz0S0RVGHR8vjF8FB",
    "map_url": "https://maps.google.com/?q=-6.2146,106.8451",
    "amenities": ["WiFi", "Gym", "Pool"],
    "rules": ["Quiet hours after 10pm"],
    "base_price": 200000,
    "status": "active"
  },
  {
    "uid": "property-1-3",
    "tenant_uid": "tenant-1",
    "category": "villa",
    "title": "Luxury Villa with Garden",
    "description": "Spacious villa with private garden.",
    "address": "789 Oak St, Jakarta",
    "city": "Jakarta",
    "country": "Indonesia",
    "postal_code": "10130",
    "latitude": -6.22,
    "longitude": 106.85,
    "place_id": "ChIJnUvjR6Iz0S0RVGHR8vjF8FC",
    "map_url": "https://maps.google.com/?q=-6.2200,106.8500",
    "amenities": ["WiFi", "Garden", "BBQ"],
    "rules": ["No parties"],
    "base_price": 300000,
    "status": "active"
  },
  {
    "uid": "property-2-1",
    "tenant_uid": "tenant-2",
    "category": "house",
    "title": "Family House in Surabaya",
    "description": "Comfortable house for family stays.",
    "address": "101 Pine St, Surabaya",
    "city": "Surabaya",
    "country": "Indonesia",
    "postal_code": "60211",
    "latitude": -7.2575,
    "longitude": 112.7521,
    "place_id": "ChIJd6l5B6Jz0S0RVGHR8vjF8FD",
    "map_url": "https://maps.google.com/?q=-7.2575,112.7521",
    "amenities": ["WiFi", "Parking"],
    "rules": ["No smoking"],
    "base_price": 120000,
    "status": "active"
  },
  {
    "uid": "property-2-2",
    "tenant_uid": "tenant-2",
    "category": "apartment",
    "title": "City Apartment",
    "description": "Convenient apartment near city center.",
    "address": "202 Maple St, Surabaya",
    "city": "Surabaya",
    "country": "Indonesia",
    "postal_code": "60212",
    "latitude": -7.26,
    "longitude": 112.75,
    "place_id": "ChIJd6l5B6Jz0S0RVGHR8vjF8FE",
    "map_url": "https://maps.google.com/?q=-7.2600,112.7500",
    "amenities": ["WiFi", "Laundry"],
    "rules": ["No pets"],
    "base_price": 180000,
    "status": "active"
  },
  {
    "uid": "property-2-3",
    "tenant_uid": "tenant-2",
    "category": "hotel",
    "title": "Boutique Hotel Room",
    "description": "Elegant hotel room experience.",
    "address": "303 Cedar St, Surabaya",
    "city": "Surabaya",
    "country": "Indonesia",
    "postal_code": "60213",
    "latitude": -7.265,
    "longitude": 112.755,
    "place_id": "ChIJd6l5B6Jz0S0RVGHR8vjF8FF",
    "map_url": "https://maps.google.com/?q=-7.2650,112.7550",
    "amenities": ["WiFi", "Breakfast"],
    "rules": ["Check-in after 2pm"],
    "base_price": 250000,
    "status": "active"
  },
  {
    "uid": "property-3-1",
    "tenant_uid": "tenant-3",
    "category": "villa",
    "title": "Scenic Villa in Bandung",
    "description": "Villa with mountain views.",
    "address": "404 Birch St, Bandung",
    "city": "Bandung",
    "country": "Indonesia",
    "postal_code": "40111",
    "latitude": -6.9175,
    "longitude": 107.6191,
    "place_id": "ChIJgx6lB6Jz0S0RVGHR8vjF8FG",
    "map_url": "https://maps.google.com/?q=-6.9175,107.6191",
    "amenities": ["WiFi", "Garden"],
    "rules": ["No loud music"],
    "base_price": 280000,
    "status": "active"
  },
  {
    "uid": "property-3-2",
    "tenant_uid": "tenant-3",
    "category": "apartment",
    "title": "Modern Apt in Bandung",
    "description": "Contemporary apartment.",
    "address": "505 Spruce St, Bandung",
    "city": "Bandung",
    "country": "Indonesia",
    "postal_code": "40112",
    "latitude": -6.92,
    "longitude": 107.62,
    "place_id": "ChIJgx6lB6Jz0S0RVGHR8vjF8FH",
    "map_url": "https://maps.google.com/?q=-6.9200,107.6200",
    "amenities": ["WiFi", "Balcony"],
    "rules": ["No smoking"],
    "base_price": 160000,
    "status": "active"
  },
  {
    "uid": "property-3-3",
    "tenant_uid": "tenant-3",
    "category": "house",
    "title": "Traditional House",
    "description": "Authentic traditional house.",
    "address": "606 Willow St, Bandung",
    "city": "Bandung",
    "country": "Indonesia",
    "postal_code": "40113",
    "latitude": -6.925,
    "longitude": 107.625,
    "place_id": "ChIJgx6lB6Jz0S0RVGHR8vjF8FI",
    "map_url": "https://maps.google.com/?q=-6.9250,107.6250",
    "amenities": ["WiFi", "Parking"],
    "rules": ["Respect local culture"],
    "base_price": 140000,
    "status": "active"
  },
  {
    "uid": "property-4-1",
    "tenant_uid": "tenant-4",
    "category": "room",
    "title": "Private Room in Yogyakarta",
    "description": "Private room in shared house.",
    "address": "707 Ash St, Yogyakarta",
    "city": "Yogyakarta",
    "country": "Indonesia",
    "postal_code": "55211",
    "latitude": -7.7956,
    "longitude": 110.3695,
    "place_id": "ChIJ6x6lB6Jz0S0RVGHR8vjF8FJ",
    "map_url": "https://maps.google.com/?q=-7.7956,110.3695",
    "amenities": ["WiFi", "Shared Kitchen"],
    "rules": ["Shared spaces"],
    "base_price": 80000,
    "status": "active"
  },
  {
    "uid": "property-4-2",
    "tenant_uid": "tenant-4",
    "category": "apartment",
    "title": "Studio Apt",
    "description": "Cozy studio apartment.",
    "address": "808 Poplar St, Yogyakarta",
    "city": "Yogyakarta",
    "country": "Indonesia",
    "postal_code": "55212",
    "latitude": -7.8,
    "longitude": 110.37,
    "place_id": "ChIJ6x6lB6Jz0S0RVGHR8vjF8FK",
    "map_url": "https://maps.google.com/?q=-7.8000,110.3700",
    "amenities": ["WiFi", "Kitchenette"],
    "rules": ["No guests"],
    "base_price": 100000,
    "status": "active"
  },
  {
    "uid": "property-4-3",
    "tenant_uid": "tenant-4",
    "category": "house",
    "title": "Family Home",
    "description": "Spacious family home.",
    "address": "909 Elm St, Yogyakarta",
    "city": "Yogyakarta",
    "country": "Indonesia",
    "postal_code": "55213",
    "latitude": -7.805,
    "longitude": 110.375,
    "place_id": "ChIJ6x6lB6Jz0S0RVGHR8vjF8FL",
    "map_url": "https://maps.google.com/?q=-7.8050,110.3750",
    "amenities": ["WiFi", "Yard"],
    "rules": ["Family friendly"],
    "base_price": 170000,
    "status": "active"
  },
  {
    "uid": "property-5-1",
    "tenant_uid": "tenant-5",
    "category": "hotel",
    "title": "Hotel Suite in Medan",
    "description": "Luxury hotel suite.",
    "address": "1010 Oak St, Medan",
    "city": "Medan",
    "country": "Indonesia",
    "postal_code": "20111",
    "latitude": 3.5952,
    "longitude": 98.6722,
    "place_id": "ChIJ7x6lB6Jz0S0RVGHR8vjF8FM",
    "map_url": "https://maps.google.com/?q=3.5952,98.6722",
    "amenities": ["WiFi", "Room Service"],
    "rules": ["No smoking in room"],
    "base_price": 220000,
    "status": "active"
  },
  {
    "uid": "property-5-2",
    "tenant_uid": "tenant-5",
    "category": "apartment",
    "title": "Downtown Apt",
    "description": "Apartment in downtown Medan.",
    "address": "1111 Pine St, Medan",
    "city": "Medan",
    "country": "Indonesia",
    "postal_code": "20112",
    "latitude": 3.6,
    "longitude": 98.67,
    "place_id": "ChIJ7x6lB6Jz0S0RVGHR8vjF8FN",
    "map_url": "https://maps.google.com/?q=3.6000,98.6700",
    "amenities": ["WiFi", "Gym Access"],
    "rules": ["Quiet hours"],
    "base_price": 190000,
    "status": "active"
  },
  {
    "uid": "property-5-3",
    "tenant_uid": "tenant-5",
    "category": "villa",
    "title": "Tropical Villa",
    "description": "Villa with tropical garden.",
    "address": "1212 Cedar St, Medan",
    "city": "Medan",
    "country": "Indonesia",
    "postal_code": "20113",
    "latitude": 3.605,
    "longitude": 98.675,
    "place_id": "ChIJ7x6lB6Jz0S0RVGHR8vjF8FO",
    "map_url": "https://maps.google.com/?q=3.6050,98.6750",
    "amenities": ["WiFi", "Pool", "Garden"],
    "rules": ["No parties"],
    "base_price": 320000,
    "status": "active"
  }
]
